stop_id,stop_name,stop_desc,stop_lat,stop_lon
1,Copou - sens Fundatie,,47.19053,27.55849
3,George Cosbuc - sens Fundatie,,47.18458,27.56391
4,Triumf - sens Fundatie,,47.18056,27.56736
5,Universitate - sens Fundatie,,47.17496,27.57204
6,Piata M. Eminescu - sens P. Unirii,,47.16888,27.57679
29,Piata Unirii - sens Tg. Cucu,,47.165517,27.580742
8,Filarmonica -  sens Tg. Cucu,,47.16414,27.58542
27,Targu Cucu - sens Tatarasi/Tudor,,47.1643,27.59083
420,Bucsinescu,,47.15896596,27.6001004
421,Tudor Vladimirescu,,47.15612967,27.60384679
201,C.E.T.,,47.14919438,27.60252726
189,Baza 3,,47.14715461,27.60856384
311,Piata Ing. Virgil Sahleanu,,47.14572951,27.61862476
192,C.F.S. II,,47.14794008,27.62023163
193,Pod Metalurgie,,47.1500854,27.62090155
194,Blocuri Metalurgie,,47.1529303,27.62208143
415,Tatarasi Sud,,47.15618676,27.62403712
81,Flora,,47.15865629,27.62066686
82,Dr. Savini,,47.15986589,27.61464086
417,Ateneu,,47.16233665,27.60602528
84,Padurii,,47.16315933,27.59774709
331,Targu Cucu,,47.16415371,27.59017371
28,Filarmonica - sens P.ta Unirii,,47.16410517,27.58569157
7,Piata Unirii -  sens Gara/Copou,,47.165551,27.580803
30,Piata M. Eminescu - sens Copou,,47.16865733,27.57686234
31,Universitate - sens Agronomie,,47.17539658,27.57179996
32,Triumf - sens Agronomie,,47.18083625,27.56729122
33,George Cosbuc - sens Agronomie,,47.1835,27.56494
34,Stadion - sens Agronomie,,47.1856602,27.56313702
35,Copou - sens Fundatie,,47.19073972,27.5590083
374,Dancu,,47.15161747,27.65953213
92,Blocuri Dancu,,47.15232904,27.65601951
91,Rond vechi Dancu,,47.15300937,27.64853734
77,Hotel Basarabia,,47.15265046,27.64285556
78,Phoenix,,47.15191646,27.63644072
79,I.P.A.,,47.15383213360778,27.632605433464054
85,Vointa,,47.16786484,27.57301583
86,Str. Bacinschi,,47.16825281,27.56849347
87,Gara,,47.16651954,27.5703055
11,Padurii -  sens Tatarasi,,47.16322,27.59683
12,Ateneu - sens Tatarasi,,47.16256058,27.60512212
13,Dr. Savini - sens Tatarasi Sud,,47.160084399347156,27.613422274589542
14,Flora - Sens Tatarasi Sud,,47.15924156,27.61879812
15,Tatarasi Sud - sens Metalurgie/Dancu,,47.15628843,27.6238705
88,I.P.A.,,47.15432460829934,27.63135552406311
89,Phoenix,,47.15236197830744,27.635523676872257
90,Hotel Basarabia,,47.15233764,27.64185524
76,Rond vechi Dancu,,47.15293514,27.64847761
75,Blocuri Dancu,,47.15238728,27.65500939
74,Dancu,,47.15158301,27.65922087
378,Dacia,,47.16833204,27.54141435
392,Columnei,,47.16667772,27.54415892
394,Bicaz,,47.16669152,27.55016366
396,Zimbru,,47.16672252,27.55635703
323,Familial,,47.16232167,27.56645931
401,Pasaj Alexandru cel Bun,,47.16038293,27.57312879
207,Gara,,47.16646227,27.57053554
214,Str. Bacinschi,,47.16810656,27.56839173
391,Targu Cucu,,47.164399273844445,27.591112732625337
400,Pasaj Alexandru cel Bun,,47.16004281730172,27.573071122169498
398,Minerva,,47.16347578153286,27.56433892223868
397,Zimbru,,47.16651099074442,27.55806469904201
395,Bicaz,,47.166828288341044,27.550969719886783
393,Columnei,,47.16676095,27.5451213
174,Dacia,,47.16816237503399,27.541579842109066
94,Canta,,47.17236427529721,27.537727117669423
95,Sergent Grigore Ioan,,47.17321321,27.54526171
96,Moara 1 Mai,,47.17347616,27.55007867
126,Octav Bancila,,47.17159846167471,27.560418605607996
310,Baza 3,,47.14661535,27.6099696
204,C.E.T.,,47.14959377,27.60272244
64,Bucsinescu,,47.1589884,27.60007861
97,Octav Bancila,,47.17100403682222,27.561549425190613
399,Moara 1 Mai,,47.17354433608095,27.551840901505788
128,Sergent Grigore Ioan,,47.17330584612167,27.544628977775577
129,Canta,,47.17238761418337,27.537447094982785
2,Stadion,,47.18646,27.56235
422,Tudor Vladimirescu,,47.1566391,27.6034116
418,Palatul Culturii,,47.159208,27.587448
149,Podu Ros (3),,47.14976214,27.58595917
150,Pod Nicolina,,47.14271786,27.58029878
151,Tudor Neculai,,47.13921645,27.57835022
141,C.U.G. I,,47.13338039,27.57205793
197,Biserica Inaltarea Domnului,,47.12940211,27.56930244
196,Tehnopolis,,47.12384240766401,27.56733977814293
419,Tehnopolis,,47.123692755988145,27.567425609158818
152,Biserica Inaltarea Domnului,,47.12851136,27.56866807
242,C.U.G. I,,47.13388061,27.57241091
198,Tudor Neculai,,47.13822818,27.57742581
199,Pod Nicolina,,47.14307359,27.58065653
300,Podu Ros (3),,47.15011784,27.58639552
332,Palatul Culturii,,47.15932388,27.58787297
402,Podu de Piatra,,47.156624222386014,27.57433283302817
404,Gara Internationala,,47.15040181,27.57726207
406,Vama,,47.14751392,27.58145485
407,Piata Nicolina,,47.14630698,27.59005524
317,Tesatura,,47.14911991,27.59507185
188,C.E.T.,,47.14816433328962,27.60104227039847
267,Tatarasi Nord,,47.16150400591752,27.60865867170651
416,Tatarasi Nord,,47.16157330777353,27.60846877084987
16,Pod Metalurgie,,47.15207814,27.6215103
17,C.F.S. II,,47.14892326,27.62052766
312,Piata Ing. Virgil Sahleanu,,47.146167180009726,27.61972868494923
20,Baza 3,,47.146969115032135,27.610710024964646
202,C.E.T.,,47.14836134483401,27.600843787586207
318,Tesatura,,47.149145735187425,27.59547293186188
408,Piata Nicolina,,47.14638289,27.59019842
405,Gara Internationala,,47.14912822316988,27.57908356150438
403,Podu de Piatra,,47.15675481280536,27.57447123527527
173,Dacia,,47.16882472,27.5408178
172,Columnei,,47.16664993,27.54444591
175,Bicaz,,47.16673,27.55097
170,Zimbru,,47.16667032,27.55548744
177,Minerva,,47.16328957,27.56429739
130,Podu de Piatra,,47.15661781,27.57603068
136,Pod Cantemir,,47.153748,27.582645
23,Podu Ros (1) - sens Tesatura,,47.15093309,27.58930349
210,Tesatura,,47.14908286,27.59473622
268,C.E.T.,,47.14805707133602,27.60147571563721
307,Baza 3,,47.14690568,27.60977175
190,C.F.S.,,47.14614528898293,27.615337371826175
191,Piata Ing. Virgil Sahleanu,,47.14560146,27.61883766
234,Fabrica de Ulei,,47.14406312,27.62969582
233,Tehnoton,,47.14327515,27.63578121
370,Tutora,,47.14335173,27.64319479
371,Tutora,,47.14335431,27.64333159
238,Tehnoton,,47.1434331,27.63622607
237,Fabrica de Ulei,,47.14417759,27.63027325
18,P-ta Ing. V. Sahleanu - sens Baza 3,,47.14556411,27.62033247
19,C.F.S. - sens Baza 3,,47.14594047,27.61751858
308,Baza 3,,47.14701416,27.61053077
319,C.E.T.,,47.14820919,27.60152191
61,Tesatura,,47.14915672,27.59531376
186,Podu Ros (1),,47.15095267,27.58935784
135,Bis. Lipoveneasca - sens Gara,,47.15262542,27.58689803
131,Pod Cantemir - sens Gara,,47.154003,27.58375
429,Podu de Piatra - sens Gara,,47.157329,27.576565
169,Minerva,,47.16329843,27.56461304
176,Zimbru,,47.166828288229745,27.55582988262177
171,Bicaz,,47.16679275,27.55001146
213,Columnei,,47.16680333,27.54414859
9,Targu Cucu,,47.16472,27.59092
66,Targu Cucu,,47.16582168313267,27.58949160575867
67,Piata Independentei,,47.16847122,27.57957775
80,Tatarasi Sud,,47.15638,27.62367
337,Flora,,47.1589018,27.62050867
335,Dr. Savini,,47.15995552,27.61459976
377,Tatarasi Nord,,47.16144619,27.60887459
303,Ateneu,,47.1624656,27.60595406
363,Str. Conductelor,,47.16453204,27.59615153
360,Podu de Fier,,47.16616838,27.59501025
68,Blocuri Pacurari,,47.17095006421935,27.571205377644223
40,Petru Poni,,47.1736683212151,27.559085011744173
70,Moara 1 Mai,,47.17452737,27.55045548
302,Cimitirul Evreiesc,,47.17485345787008,27.544141888683956
72,OMV Pacurari,,47.17352493,27.53737539
73,Pacurari,,47.17303891148213,27.53337872054545
160,Popas Pacurari,,47.17248777,27.52007878
161,Carrefour ERA,,47.16744087,27.51373105
366,Praktiker ERA,,47.17005595,27.51286089
357,Str. 1 Decembrie,,47.17386523,27.50669785
361,Troita,,47.17525092862316,27.49884474218561
355,Antibiotice,,47.17734056,27.48900063
359,Dedeman,,47.1807145734009,27.473966717589068
375,METRO,,47.18126696,27.46890753
376,METRO,,47.18118492,27.46899337
356,Antibiotice,,47.1775875590911,27.487262962677054
362,Troita,,47.17503007,27.49912329
358,Str. 1 Decembrie,,47.17387941,27.50610441
369,Carrefour ERA,,47.16753906,27.51390561
155,Praktiker ERA,,47.17003762638909,27.51281797885895
156,Popas Pacurari,,47.1724089,27.52018607
36,Pacurari,,47.1729331582682,27.53337013695273
37,OMV Pacurari,,47.17360859,27.53860211
301,Cimitirul Evreiesc,,47.17470124,27.54422338
39,Moara 1 Mai,,47.17425422,27.55230072
69,Petru Poni,,47.17355456,27.55843357
41,Blocuri Pacurari,,47.17086556,27.57091058
42,Piata Independentei,,47.16791686,27.58082524
10,Podu de Fier,,47.16654,27.59465
364,Str. Conductelor,,47.16434179,27.59616466
365,Bucsinescu,,47.160019472768404,27.599894284940095
297,Spitalul Sf. Maria,,47.16012,27.60947
334,Dr. Savini,,47.16004427629994,27.613568186825436
336,Flora,,47.15922430063565,27.61898088429007
390,Tatarasi Sud,,47.15655783248506,27.623518109321598
255,Moldomobila,,47.14484941,27.60635197
256,Liceul de Constructii,,47.1430695,27.60253275
49,Frigorifer,,47.14134074,27.60017077
50,Camine C.U.G.,,47.13719840138118,27.604498028886155
51,Continental,,47.136905011517065,27.600165725016268
133,Liceul C.U.G.,,47.136565640359244,27.594873189664217
53,Blocuri Cetatuia,,47.13553072772941,27.58674824290211
103,Bazar,,47.13404182,27.58037378
54,C.U.G. I,,47.13407393385874,27.575644969547287
153,Tehnopolis,,47.124760748640526,27.567249656312928
263,Vama II,,47.11953227069235,27.564390420520798
215,Otelarie,,47.11729457067777,27.562993526262296
216,Baza Nautica,,47.11421352,27.56103921
217,Horpaz,,47.11076564275048,27.55954742431641
218,Sere Ciurea,,47.10561246655786,27.55957317345747
219,Lunca Cetatuii,,47.100656710015066,27.559701919817606
223,Astoria,,47.09718809,27.55900317
222,Blocuri Ciurea,,47.09670078,27.56119183
221,Blocuri Ciurea,,47.09664,27.56659
220,Astoria,,47.09705029,27.55900642
224,Lunca Cetatuii,,47.10033048,27.55977809
225,Sere Ciurea,,47.10486399,27.55970347
226,Horpaz,,47.11045750314655,27.559390783244456
227,Baza Nautica,,47.11399439,27.56101203
228,Otelarie,,47.1167579,27.56268674
264,Vama II,,47.11925488,27.56428173
229,Tehnopolis,,47.1236825359029,27.567140222054153
120,Bazar,,47.13406736,27.5805182
56,Blocuri Cetatuia,,47.13546212191335,27.58651006195578
52,Liceul C.U.G.,,47.136418943883875,27.593853950238557
57,Continental,,47.136856842587996,27.600409269725795
58,Camine C.U.G.,,47.13716555929772,27.60481882134627
146,Elena Doamna,,47.16136073,27.5935289
147,Palatul Culturii,,47.15992259,27.58883861
148,Sala Polivalenta,,47.15382337831613,27.587345838546756
162,Pasaj Nicolina,,47.14500767276128,27.581600546836857
291,Gara Internationala,,47.14780194,27.57868683
164,Spitalul de Recuperare,,47.15003007527262,27.574616074562076
285,Policlinica Recuperare,,47.15201395050128,27.572435974943804
166,Mircea cel Batran,,47.15608732,27.57042393
167,Piata Alexandru cel Bun,,47.16026999,27.57072184
168,Piata Alexandru cel Bun II,,47.16191689602321,27.569475889140456
178,Familial,,47.161960665075924,27.56723463535309
372,Piata Alexandru cel Bun,,47.16011576827615,27.570440411764142
180,Mircea cel Batran,,47.15606318993977,27.570342779290517
284,Policlinica Recuperare,,47.15187824093024,27.572477817338953
182,Spitalul de Recuperare,,47.14974697135052,27.574887514310834
163,Gara Internationala,,47.1470459,27.57988924
184,Pasaj Nicolina,,47.144771244138035,27.58228290054831
24,Sala Polivalenta,,47.15386617,27.58734652
25,Palatul Culturii,,47.159349778049084,27.587105512684506
26,Elena Doamna,,47.16144856486854,27.594112515580495
328,Podu Ros (2),,47.15045422,27.58838401
232,Tutora,,47.14334593,27.64348871
269,Somaco,,47.14346916,27.6500505
270,Boromir,,47.14185697,27.65831378
271,Caretta,,47.13848954,27.66699587
272,Vinia,,47.13596595,27.67333853
273,Facultativa,,47.13449183,27.68308244
274,Blocuri Tomesti,,47.13254732,27.69102403
276,Tomesti,,47.13061103,27.69826012
275,Tomesti,,47.13076329,27.69811796
277,Blocuri Tomesti,,47.13204262,27.69299689
278,Facultativa,,47.13439573,27.6833716
279,Vinia,,47.13563373,27.67462027
280,Caretta,,47.13821701,27.66787053
281,Boromir,,47.14180977,27.65857559
282,Somaco,,47.14350572,27.65125519
239,Tutora,,47.14350848,27.64447815
59,Frigorifer,,47.14205166,27.59933885
60,Casa Sindicatelor,,47.14527801,27.59476196
132,Podu Ros (2),,47.15030367,27.58861382
99,Gara,,47.16575019894594,27.57125473035558
100,Pasaj Alexandru cel Bun,,47.161672518260765,27.573233127332063
48,Casa Sindicatelor,,47.146742910677574,27.592933416235613
105,OMV Bucium,,47.13551467112097,27.608918309015284
117,Spitalul nr. 7,,47.13060914340267,27.613913655150103
107,Centrofarm,,47.12759743179906,27.616439223093042
108,Hanul Trei Sarmale,,47.123756996670004,27.622322917050045
109,Scoala Generala nr. 2,,47.121385876839895,27.62524652487628
113,Plopii fara sot,,47.11892412208507,27.630127072334293
111,Bucium,,47.11654621588359,27.631922006476092
112,Bucium,,47.11659634,27.63214052
110,Plopii fara sot,,47.119275286703704,27.629611015581766
114,Scoala Generala nr. 2,,47.12104116,27.62584671
115,Hanul Trei Sarmale,,47.12436801010271,27.621350884437565
116,Centrofarm,,47.12784342630706,27.616335153579715
106,Spitalul nr. 7,,47.13051324,27.6140734
118,OMV Bucium,,47.135235139033554,27.60944616788038
123,Pasaj Alexandru cel Bun (sens Gara),,47.161463154727144,27.57329535477766
124,Gara,,47.165609418385,27.57144248498662
333,Copou,,47.19043297,27.55920142
343,Muzeul Mihail Sadoveanu,,47.1959979,27.55414613
352,Str. Podgoriilor,,47.19733955,27.55084366
339,Liceul Agricol,,47.19862824,27.5448744
341,Liceul Pedagogic,,47.19969782,27.54175231
252,Seminarul Teologic,,47.20077253,27.53819302
253,Statiunea Viticola,,47.20262038,27.53503203
243,Breazu,,47.2095358,27.53157064
254,Breazu,,47.20958955,27.5315693
244,Statiunea Viticola,,47.20279095642651,27.534667253494266
245,Seminarul Teologic,,47.20091668,27.53771906
342,Liceul Pedagogic,,47.19972757,27.54156349
340,Liceul Agricol,,47.19838339,27.54463032
353,Str. Podgoriilor,,47.19743310118751,27.55027770996094
344,Muzeul Mihail Sadoveanu,,47.19539916,27.55468612
200,Piata Mihai Eminescu,,47.16895337,27.57661047
477,Fidelio,,47.16963849572582,27.57685363278143
134,Podu Ros (2),,47.150466,27.58814491
55,C.U.G. I,,47.13366441,27.57564342
315,Tesatura,,47.14965297,27.59515489
322,Scoala Ion Ghica,,47.15211436,27.59860017
145,C.T.P. - Sectia nr. 1,,47.15384,27.60351
63,Tudor Vladimirescu,,47.15637672,27.6037505
65,Elena Doamna,,47.16101289,27.59609923